{"version": 0.6, "generator": "Overpass API 0.7.62.10 2d4cfc48", "osm3s": {"timestamp_osm_base": "2026-02-11T15:29:13Z", "copyright": "The data included in this document is from www.openstreetmap.org. The data is made available under ODbL."}, "elements": [{"type": "way", "id": 729551361, "center": {"lat": 58.141951, "lon": 16.6429148}, "tags": {"leisure": "nature_reserve", "lst:ref": "2023549", "name": "Kattedals gammelskogs naturreservat", "natural": "wood", "wikidata": "Q30169961"}}, {"type": "way", "id": 913664036, "center": {"lat": 55.9738542, "lon": 13.4415675}, "tags": {"boundary": "protected_area", "leisure": "nature_reserve", "name": "Hallar\u00f6ds naturreservat", "operator": "L\u00e4nsstyrelsen i Sk\u00e5ne l\u00e4n", "protect_class": "4", "protection_title": "Naturreservat", "ref:DIARIENR": "511-9986-2023", "ref:NVRID": "2043741", "short_name": "Hallar\u00f6d", "source": "Naturv\u00e5rdsverket", "start_date": "2015-04-09", "website": "https://www.lansstyrelsen.se/skane/besoksmal/naturreservat/hoor/hallarod.html", "wikidata": "Q30170045"}}, {"type": "way", "id": 1284729094, "center": {"lat": 59.0598387, "lon": 17.3582543}, "tags": {"boundary": "protected_area", "leisure": "nature_reserve", "name": "Skogstorps naturreservat", "operator": "L\u00e4nsstyrelsen i Stockholms l\u00e4n", "protect_class": "1a", "protection_title": "Naturreservat", "ref:NVRID": "2043487", "source": "Naturv\u00e5rdsverket", "start_date": "2015-03-19", "website": "https://www.lansstyrelsen.se/stockholm/besoksmal/naturreservat/skogstorp.html", "wikidata": "Q30169842"}}, {"type": "relation", "id": 10277724, "center": {"lat": 57.5261012, "lon": 12.0193215}, "tags": {"communication:amateur_radio:pota": "SM-0069", "leisure": "nature_reserve", "lst:ref": "2001955", "name": "Sandsj\u00f6backa naturreservat", "type": "multipolygon", "wikidata": "Q30169832"}}, {"type": "relation", "id": 18702870, "center": {"lat": 55.5543332, "lon": 13.8978526}, "tags": {"boundary": "protected_area", "leisure": "nature_reserve", "name": "Kronoskogens naturreservat", "operator": "Tomelilla kommun", "protect_class": "4", "protection_title": "Naturreservat", "ref:DIARIENR": "511-20497-2016", "ref:NVRID": "2044377", "short_name": "Kronoskogen", "source": "Naturv\u00e5rdsverket", "start_date": "2015-09-28", "type": "boundary", "website": "https://tomelilla.se/upplevaochgora/naturochfriluftsliv/naturreservatochnaturomraden/naturreservat/kronoskogen.html", "wikidata": "Q30170103"}}]}