{"version": 0.6, "generator": "Overpass API 0.7.62.10 2d4cfc48", "osm3s": {"timestamp_osm_base": "2026-02-11T14:51:15Z", "copyright": "The data included in this document is from www.openstreetmap.org. The data is made available under ODbL."}, "elements": [{"type": "way", "id": 529123662, "center": {"lat": 66.0167753, "lon": 18.6305719}, "tags": {"leisure": "nature_reserve", "lst:area_ha": "52.48", "lst:diarienr": "511-279-10", "lst:land_ha": "52.43", "lst:ref": "2020525", "lst:tillkomst": "2010-07-29", "lst:vatten_ha": "0.0", "name": "Ruttjeb\u00e4cken", "operator": "L\u00e4nsstyrelsen i Norrbottens l\u00e4n", "protect_class": "1", "wikidata": "Q30166877"}}, {"type": "way", "id": 529123680, "center": {"lat": 65.9073946, "lon": 19.6627004}, "tags": {"leisure": "nature_reserve", "lst:area_ha": "171.56", "lst:diarienr": "511-9375-09", "lst:land_ha": "171.51", "lst:ref": "2014846", "lst:tillkomst": "2010-01-01", "lst:vatten_ha": "0.0", "name": "Gardevare", "operator": "L\u00e4nsstyrelsen i Norrbottens l\u00e4n", "protect_class": "1", "wikidata": "Q30166796"}}, {"type": "way", "id": 1359716155, "center": {"lat": 55.728838, "lon": 13.7153571}, "tags": {"alt_name": "Ekskiftets naturreservat", "boundary": "protected_area", "leisure": "nature_reserve", "name": "Ekskiftet-Linneskogens naturreservat", "operator": "L\u00e4nsstyrelsen i Sk\u00e5ne l\u00e4n", "protect_class": "1a", "protection_title": "Naturreservat", "ref:DIARIENR": "511-14626-10, 511-17575-11", "ref:NVRID": "2028089", "short_name": "Ekskiftet-Linneskogen", "source": "Naturv\u00e5rdsverket", "start_date": "2011-09-27", "website": "https://www.lansstyrelsen.se/skane/besoksmal/naturreservat/sjobo/ekskiftet-linneskogen.html", "wikidata": "Q30166766"}}, {"type": "relation", "id": 5704956, "center": {"lat": 58.143005, "lon": 16.2408563}, "tags": {"leisure": "nature_reserve", "lst:area_ha": "175.99513986", "lst:ref": "2001834", "lst:url": "https://www.lansstyrelsen.se/ostergotland/besoksmal/naturreservat/ekhultebergen-naturreservat.html", "name": "Ekhultebergen", "type": "multipolygon", "wikidata": "Q30166846"}}, {"type": "relation", "id": 17790189, "center": {"lat": 61.9250237, "lon": 15.3480467}, "tags": {"boundary": "protected_area", "name": "Gommorsberget", "operator": "L\u00e4nsstyrelsen i G\u00e4vleborgs l\u00e4n", "protect_class": "1a", "protection_title": "Naturreservat", "type": "multipolygon", "wikidata": "Q30166862"}}]}