{"version": 0.6, "generator": "Overpass API 0.7.62.10 2d4cfc48", "osm3s": {"timestamp_osm_base": "2026-02-11T14:43:59Z", "copyright": "The data included in this document is from www.openstreetmap.org. The data is made available under ODbL."}, "elements": [{"type": "way", "id": 529123616, "center": {"lat": 65.1918385, "lon": 19.4895165}, "tags": {"leisure": "nature_reserve", "lst:area_ha": "36.76", "lst:diarienr": "511-8109-11", "lst:land_ha": "36.76", "lst:ref": "2031749", "lst:tillkomst": "2013-03-08", "lst:vatten_ha": "0.0", "name": "Bergmyrb\u00e4cken", "operator": "L\u00e4nsstyrelsen i Norrbottens l\u00e4n", "protect_class": "1", "wikidata": "Q30160640"}}, {"type": "way", "id": 529123941, "center": {"lat": 66.7932908, "lon": 23.6048214}, "tags": {"leisure": "nature_reserve", "lst:area_ha": "740.15", "lst:diarienr": "511-18542-07", "lst:land_ha": "703.42", "lst:ref": "2021687", "lst:tillkomst": "2010-12-15", "lst:vatten_ha": "36.86", "name": "Ahmarova", "operator": "L\u00e4nsstyrelsen i Norrbottens l\u00e4n", "protect_class": "1", "wikidata": "Q30160602"}}, {"type": "way", "id": 1284729123, "center": {"lat": 59.8228058, "lon": 16.4309793}, "tags": {"boundary": "protected_area", "leisure": "nature_reserve", "name": "Vinnsj\u00f6mossens naturreservat", "operator": "L\u00e4nsstyrelsen i V\u00e4stmanlands l\u00e4n", "protect_class": "4", "protection_title": "Naturreservat", "ref:DIARIENR": "511-3510-12", "ref:NVRID": "2041652", "source": "Naturv\u00e5rdsverket", "start_date": "2014-01-03", "website": "https://www.lansstyrelsen.se/vastmanland/besoksmal/naturreservat/vinnsjomossen.html", "wikidata": "Q30160612"}}, {"type": "relation", "id": 9453772, "center": {"lat": 65.977339, "lon": 18.476625}, "tags": {"leisure": "nature_reserve", "lst:area_ha": "4579.1", "lst:note": "N2000 SITE: SE0820069", "lst:ref": "NR2001278", "lst:tillkomst": "1988", "lst:url": "http://www.bd.lst.se/skydd_ajaur", "name": "Nimtek", "type": "multipolygon", "wikidata": "Q30160632"}}, {"type": "relation", "id": 9732221, "center": {"lat": 60.454223, "lon": 15.093196}, "tags": {"leisure": "nature_reserve", "lst:ajour": "2008-10-01", "lst:area_ha": "255.012831", "lst:ref": "2002208", "lst:typ": "S", "name": "Tryssj\u00f6berget", "snowmobile": "no", "start_date": "2008-03-26", "type": "multipolygon", "wikidata": "Q30160600"}}]}