{"version": 0.6, "generator": "Overpass API 0.7.62.10 2d4cfc48", "osm3s": {"timestamp_osm_base": "2026-02-11T16:00:00Z", "copyright": "The data included in this document is from www.openstreetmap.org. The data is made available under ODbL."}, "elements": [{"type": "way", "id": 43189776, "center": {"lat": 61.6195975, "lon": 13.27472}, "tags": {"leisure": "nature_reserve", "lst:ajour": "2007-06-14", "lst:area_ha": "162.322183", "lst:barr_ha": "108.5", "lst:bland_ha": "12.8", "lst:l\u00f6v_ha": "4.1", "lst:myr_ha": "13.4", "lst:ref": "2002067", "lst:typ": "S", "name": "Gammels\u00e4terns Naturreservat", "start_date": "2007-04-24", "wikidata": "Q30186408"}}, {"type": "way", "id": 102864598, "center": {"lat": 57.8811134, "lon": 15.38473}, "tags": {"leisure": "nature_reserve", "lst:area_ha": "58.5211610221", "lst:k\u00e4lla": "Lm inm\u00e4tt", "lst:ref": "2014502", "lst:url": "http://www.lansstyrelsen.se/ostergotland/amnen/naturvard/skyddadnatur/naturreservat/", "name": "N\u00e4st\u00e5ngen", "source": "L\u00e4nsstyrelsen i \u00d6sterg\u00f6tlands l\u00e4n (gis.lst.se)", "wikidata": "Q30186843"}}, {"type": "way", "id": 102865304, "center": {"lat": 57.9493888, "lon": 15.9060255}, "tags": {"leisure": "nature_reserve", "lst:area_ha": "33.705607479", "lst:k\u00e4lla": "Lm inm\u00e4tt", "lst:ref": "2014678", "lst:url": "http://www.lansstyrelsen.se/ostergotland/amnen/naturvard/skyddadnatur/naturreservat/", "name": "Boda", "source": "L\u00e4nsstyrelsen i \u00d6sterg\u00f6tlands l\u00e4n (gis.lst.se)", "wikidata": "Q30186911"}}, {"type": "way", "id": 394448400, "center": {"lat": 65.6907336, "lon": 19.9841614}, "tags": {"leisure": "nature_reserve", "lst:area_ha": "96.08", "lst:beslutsdatum": "2009-10-29", "lst:diarienr": "511-3662-09", "lst:ref": "2014580", "lst:tillkomst": "2009-12-04", "name": "Bj\u00f6rkselberget", "wikidata": "Q30186351"}}, {"type": "way", "id": 1331135987, "center": {"lat": 59.6927755, "lon": 18.7110207}, "tags": {"boundary": "protected_area", "leisure": "nature_reserve", "name": "Storlavens naturreservat", "operator": "L\u00e4nsstyrelsen i Stockholms l\u00e4n", "protect_class": "1a", "protection_title": "Naturreservat", "ref:NVRID": "2042247", "short_name": "Storlaven", "source": "Naturv\u00e5rdsverket", "start_date": "2014-12-25", "website": "https://www.lansstyrelsen.se/stockholm/besoksmal/naturreservat/storlaven.html", "wikidata": "Q30186661"}}]}