{"version": 0.6, "generator": "Overpass API 0.7.62.10 2d4cfc48", "osm3s": {"timestamp_osm_base": "2026-02-13T22:21:48Z", "copyright": "The data included in this document is from www.openstreetmap.org. The data is made available under ODbL."}, "elements": [{"type": "way", "id": 745747580, "center": {"lat": 62.3228418, "lon": 14.7724076}, "tags": {"governance_type": "L\u00e4nsstyrelse", "leisure": "nature_reserve", "name": "Fr\u00e4gnh\u00e4llorna", "operator": "L\u00e4nsstyrelsen i J\u00e4mtlands l\u00e4n", "protect_class": "1", "protection_title": "Naturreservat", "ref:DIARIENR": "511-4153-15", "ref:NVRID": "2048582", "related_law": "Milj\u00f6balken", "site_status": "G\u00e4llande", "start_date": "2019-10-03"}}, {"type": "way", "id": 1259643518, "center": {"lat": 61.437122, "lon": 15.1726556}, "tags": {"boundary": "protected_area", "name": "Nifelhem", "operator": "L\u00e4nsstyrelsen i Dalarnas l\u00e4n", "protect_class": "1a", "protection_title": "Naturreservat", "start_date": "2020-01-08", "wikidata": "Q89956899", "wikipedia": "sv:Nifelhems naturreservat"}}, {"type": "way", "id": 1341267067, "center": {"lat": 60.9986785, "lon": 12.7437472}, "tags": {"boundary": "protected_area", "leisure": "nature_reserve", "name": "Gr\u00e5-Larsknipens naturreservat", "operator": "L\u00e4nsstyrelsen i Dalarnas l\u00e4n", "protect_class": "1a", "protection_title": "Naturreservat", "ref:DIARIENR": "511-9408-2017", "ref:NVRID": "2051479", "short_name": "Gr\u00e5-Larsknipen", "source": "Naturv\u00e5rdsverket", "start_date": "2019-12-13", "website": "https://www.lansstyrelsen.se/dalarna/besoksmal/naturreservat/gra-larsknipen.html", "wikidata": "Q89947309"}}, {"type": "way", "id": 1348967252, "center": {"lat": 62.7846088, "lon": 14.7301302}, "tags": {"boundary": "protected_area", "name": "\u00c4lgsj\u00f6berget", "operator": "L\u00e4nsstyrelsen i J\u00e4mtlands l\u00e4n", "protect_class": "1a", "protection_title": "Naturreservat", "wikidata": "Q89946212"}}, {"type": "way", "id": 1354213396, "center": {"lat": 56.7751204, "lon": 15.0638531}, "tags": {"boundary": "protected_area", "leisure": "nature_reserve", "name": "Pr\u00e4stan\u00e4sets naturreservat", "operator": "L\u00e4nsstyrelsen i Kronobergs l\u00e4n", "protect_class": "1a", "protection_title": "Naturreservat", "ref:DIARIENR": "511-2-2018", "ref:NVRID": "2050845", "source": "Naturv\u00e5rdsverket", "start_date": "2019-11-28", "website": "https://www.lansstyrelsen.se/kronoberg/besoksmal/naturreservat/prastanaset.html", "wikidata": "Q89958339"}}, {"type": "relation", "id": 15771799, "center": {"lat": 66.9445767, "lon": 19.5625174}, "tags": {"boundary": "protected_area", "leisure": "nature_reserve", "name": "Jielkk\u00e1-Rijmag\u00e5bb\u00e5 naturreservat", "operator": "L\u00e4nsstyrelsen i Norrbottens l\u00e4n", "protect_class": "7", "protection_title": "Naturreservat", "ref:DIARIENR": "511-13035-2016", "ref:NVRID": "2045649", "source": "Naturv\u00e5rdsverket", "start_date": "2022-06-16", "type": "boundary"}}, {"type": "relation", "id": 15771801, "center": {"lat": 64.8338632, "lon": 17.7382999}, "tags": {"boundary": "protected_area", "leisure": "nature_reserve", "name": "Paub\u00e4ckens naturreservat", "operator": "L\u00e4nsstyrelsen i V\u00e4sterbottens l\u00e4n", "protect_class": "1a", "protection_title": "Naturreservat", "ref:NVRID": "2045469", "source": "Naturv\u00e5rdsverket", "start_date": "2022-12-22", "type": "boundary"}}]}